{
  "type": "FeatureCollection",
  "features": [
    {
      "type": "Feature",
      "geometry": {
        "type": "Point",
        "coordinates": [
          0.10264732744403204,
          49.50684936820599
        ]
      },
      "properties": {
        "title": "zerfaef",
        "description": "efze"
      }
    },
    {
      "type": "Feature",
      "geometry": {
        "type": "Point",
        "coordinates": [
          0.10548283750031828,
          49.5067947719312
        ]
      },
      "properties": {
        "title": "adazd",
        "description": "adazdadz"
      }
    },
    {
      "type": "Feature",
      "geometry": {
        "type": "Point",
        "coordinates": [
          0.09934758155361578,
          49.49019025919699
        ]
      },
      "properties": {
        "title": "dtrxcgfbhj",
        "description": "ersdtcvhjb"
      }
    },
    {
      "type": "Feature",
      "geometry": {
        "type": "Point",
        "coordinates": [
          0.14942813787709497,
          49.50228005474014
        ]
      },
      "properties": {
        "title": "hhfhf",
        "description": "dfjjhdfg"
      }
    },
    {
      "type": "Feature",
      "geometry": {
        "type": "Point",
        "coordinates": [
          0.10802844781449039,
          49.50086957720592
        ]
      },
      "properties": {
        "title": "ghehher",
        "description": "ernjher"
      }
    },
    {
      "type": "Feature",
      "geometry": {
        "type": "Point",
        "coordinates": [
          0.12205847873741504,
          49.50545165072387
        ]
      },
      "properties": {
        "title": "hehr",
        "description": "eererer"
      }
    },
    {
      "type": "Feature",
      "geometry": {
        "type": "Point",
        "coordinates": [
          0.1409837174373365,
          49.49841160755872
        ]
      },
      "properties": {
        "title": "m",
        "description": "m"
      }
    },
    {
      "type": "Feature",
      "geometry": {
        "type": "Point",
        "coordinates": [
          0.1409222974041313,
          49.49482544992904
        ]
      },
      "properties": {
        "title": "txdfcygvuhbijno",
        "description": "rdxgfchjbk"
      }
    },
    {
      "type": "Feature",
      "geometry": {
        "type": "Point",
        "coordinates": [
          0.1008683146170597,
          49.50270140950926
        ]
      },
      "properties": {
        "title": "zezezaezaz",
        "description": "efzefz"
      }
    }
  ]
}