{
  "type": "FeatureCollection",
  "features": [
    {
      "type": "Feature",
      "geometry": {
        "type": "Point",
        "coordinates": [
          0.10673184956260684,
          49.49291884953806
        ]
      },
      "properties": {
        "title": "jiof",
        "description": "gfdg"
      }
    },
    {
      "type": "Feature",
      "geometry": {
        "type": "Point",
        "coordinates": [
          0.09900260839853559,
          49.49142032479071
        ]
      },
      "properties": {
        "title": "jh",
        "description": "jhjjh"
      }
    },
    {
      "type": "Feature",
      "geometry": {
        "type": "Point",
        "coordinates": [
          0.09687210444437255,
          49.50529819900632
        ]
      },
      "properties": {
        "title": "test test",
        "description": "test"
      }
    },
    {
      "type": "Feature",
      "geometry": {
        "type": "Point",
        "coordinates": [
          0.09687210444437255,
          49.50529819900632
        ]
      },
      "properties": {
        "title": null,
        "description": null
      }
    },
    {
      "type": "Feature",
      "geometry": {
        "type": "Point",
        "coordinates": [
          0.10642696295212772,
          49.48907867026463
        ]
      },
      "properties": {
        "title": "test test",
        "description": "final test"
      }
    },
    {
      "type": "Feature",
      "geometry": {
        "type": "Point",
        "coordinates": [
          0.10445285711688257,
          49.48567749634637
        ]
      },
      "properties": {
        "title": "fonctionnne ??",
        "description": "fdsfsd"
      }
    },
    {
      "type": "Feature",
      "geometry": {
        "type": "Point",
        "coordinates": [
          0.09672809515438985,
          49.49766418924014
        ]
      },
      "properties": {
        "title": "test test",
        "description": "test test"
      }
    },
    {
      "type": "Feature",
      "geometry": {
        "type": "Point",
        "coordinates": [
          0.12370778385380277,
          49.49560755035452
        ]
      },
      "properties": {
        "title": "test test",
        "description": "test"
      }
    },
    {
      "type": "Feature",
      "geometry": {
        "type": "Point",
        "coordinates": [
          0.11569019285545323,
          49.50559925484856
        ]
      },
      "properties": {
        "title": "nglfdgf",
        "description": "gfdg"
      }
    },
    {
      "type": "Feature",
      "geometry": {
        "type": "Point",
        "coordinates": [
          0.11192012701403087,
          49.50000543305555
        ]
      },
      "properties": {
        "title": "essai",
        "description": "sss"
      }
    },
    {
      "type": "Feature",
      "geometry": {
        "type": "Point",
        "coordinates": [
          0.09990383062751107,
          49.49710673372704
        ]
      },
      "properties": {
        "title": "?? ",
        "description": "dsds"
      }
    }
  ]
}